[{"id":10486,"obdb_id":"epidemic-ales-concord","name":"Epidemic Ales","brewery_type":"micro","street":"150 Mason Circle Stes I\u0026J","address_2":null,"address_3":null,"city":"Concord","state":"California","county_province":null,"postal_code":"94520","country":"United States","longitude":null,"latitude":null,"phone":"9255668850","website_url":"http://www.epidemicales.com","updated_at":"2018-08-11T00:00:00.000Z","created_at":"2018-07-24T00:00:00.000Z"},{"id":11767,"obdb_id":"ironbark-brewery-jackson","name":"Ironbark Brewery","brewery_type":"micro","street":"2610 Kibby Rd","address_2":null,"address_3":null,"city":"Jackson","state":"Michigan","county_province":null,"postal_code":"49203-4908","country":"United States","longitude":"-84.43762976","latitude":"42.2188971","phone":"5177487988","website_url":null,"updated_at":"2018-08-24T00:00:00.000Z","created_at":"2018-07-24T00:00:00.000Z"},{"id":14417,"obdb_id":"snow-belt-brew-chardon","name":"Snow Belt Brew","brewery_type":"micro","street":"9511 Kile Rd","address_2":null,"address_3":null,"city":"Chardon","state":"Ohio","county_province":null,"postal_code":"44024","country":"United States","longitude":null,"latitude":null,"phone":null,"website_url":null,"updated_at":"2018-07-24T00:00:00.000Z","created_at":"2018-07-24T00:00:00.000Z"},{"id":8034,"obdb_id":"10-56-brewing-company-knox","name":"10-56 Brewing Company","brewery_type":"micro","street":"400 Brown Cir","address_2":null,"address_3":null,"city":"Knox","state":"Indiana","county_province":null,"postal_code":"46534","country":"United States","longitude":"-86.627954","latitude":"41.289715","phone":"6308165790","website_url":null,"updated_at":"2018-08-24T00:00:00.000Z","created_at":"2018-07-24T00:00:00.000Z"},{"id":8042,"obdb_id":"10-torr-distilling-and-brewing-reno","name":"10 Torr Distilling and Brewing","brewery_type":"micro","street":"490 Mill St","address_2":null,"address_3":null,"city":"Reno","state":"Nevada","county_province":null,"postal_code":"89502","country":"United States","longitude":"-119.7732015","latitude":"39.5171702","phone":"7755307014","website_url":"http://www.10torr.com","updated_at":"2018-08-24T00:00:00.000Z","created_at":"2018-07-24T00:00:00.000Z"},{"id":8044,"obdb_id":"101-north-brewing-company-petaluma","name":"101 North Brewing Company","brewery_type":"micro","street":"1304 Scott St Ste D","address_2":null,"address_3":null,"city":"Petaluma","state":"California","county_province":null,"postal_code":"94954-7100","country":"United States","longitude":null,"latitude":null,"phone":"7077534934","website_url":"http://www.101northbeer.com","updated_at":"2018-08-11T00:00:00.000Z","created_at":"2018-07-24T00:00:00.000Z"},{"id":8045,"obdb_id":"105-west-brewing-co-castle-rock","name":"105 West Brewing Co","brewery_type":"micro","street":"1043 Park St","address_2":null,"address_3":null,"city":"Castle Rock","state":"Colorado","county_province":null,"postal_code":"80109-1585","country":"United States","longitude":"-104.8667206","latitude":"39.38269495","phone":"3033257321","website_url":"http://www.105westbrewing.com","updated_at":"2018-08-24T00:00:00.000Z","created_at":"2018-07-24T00:00:00.000Z"},{"id":8046,"obdb_id":"10k-brewing-anoka","name":"10K Brewing","brewery_type":"micro","street":"2005 2nd Ave","address_2":null,"address_3":null,"city":"Anoka","state":"Minnesota","county_province":null,"postal_code":"55303-2243","country":"United States","longitude":"-93.38952559","latitude":"45.19812039","phone":"7633924753","website_url":"http://10KBrew.com","updated_at":"2018-08-24T00:00:00.000Z","created_at":"2018-07-24T00:00:00.000Z"},{"id":8047,"obdb_id":"10th-district-brewing-company-abington","name":"10th District Brewing Company","brewery_type":"micro","street":"491 Washington St","address_2":null,"address_3":null,"city":"Abington","state":"Massachusetts","county_province":null,"postal_code":"02351-2419","country":"United States","longitude":"-70.94594149","latitude":"42.10591754","phone":"7813071554","website_url":"http://www.10thdistrictbrewing.com","updated_at":"2018-08-24T00:00:00.000Z","created_at":"2018-07-24T00:00:00.000Z"},{"id":8048,"obdb_id":"11-below-brewing-company-houston","name":"11 Below Brewing Company","brewery_type":"micro","street":"6820 Bourgeois Rd","address_2":null,"address_3":null,"city":"Houston","state":"Texas","county_province":null,"postal_code":"77066-3107","country":"United States","longitude":"-95.5186591","latitude":"29.9515464","phone":"2814442337","website_url":"http://www.11belowbrewing.com","updated_at":"2018-07-24T00:00:00.000Z","created_at":"2018-07-24T00:00:00.000Z"},{"id":15912,"obdb_id":"12-acres-brewing-company-killeshin","name":"12 Acres Brewing Company","brewery_type":"micro","street":"Unnamed Street","address_2":"Clonmore","address_3":null,"city":"Killeshin","state":null,"county_province":"Laois","postal_code":"R93 X3X8","country":"Ireland","longitude":"-6.979343891","latitude":"52.84930763","phone":"3.53599E+11","website_url":"https://12acresbrewing.ie/","updated_at":"2021-03-26T00:00:00.000Z","created_at":"2021-03-26T00:00:00.000Z"},{"id":8051,"obdb_id":"12-west-brewing-company-gilbert","name":"12 West Brewing Company","brewery_type":"micro","street":"3000 E Ray Rd Bldg 6","address_2":null,"address_3":null,"city":"Gilbert","state":"Arizona","county_province":null,"postal_code":"85296-7832","country":"United States","longitude":null,"latitude":null,"phone":"6023395014","website_url":"http://www.12westbrewing.com","updated_at":"2018-08-11T00:00:00.000Z","created_at":"2018-07-24T00:00:00.000Z"}]